City_ID,City,Lat,Lng,Max Temp,Humidity,Cloudiness,Wind Speed,Country,Date
0,colon,9.3592,-79.9014,297.54,76,81,6.71,PA,1703056177
1,waitangi,-43.9535,-176.5597,289.72,89,96,1.34,NZ,1703056126
2,vernon,50.2581,-119.2691,277.76,91,100,1.17,CA,1703056142
3,nova sintra,14.8667,-24.7167,293.75,71,93,6.94,CV,1703056204
4,puerto natales,-51.7236,-72.4875,281.49,97,17,1.82,CL,1703056205
5,sechura,-5.5569,-80.8222,294.76,83,15,4.29,PE,1703056207
6,port-aux-francais,-49.35,70.2167,278.99,86,100,19.0,TF,1703056208
7,avarua,-21.2078,-159.775,297.18,78,75,3.6,CK,1703056209
8,amga,60.8953,131.9608,231.42,99,100,0.57,RU,1703056210
9,hithadhoo,-0.6,73.0833,301.52,75,16,2.84,MV,1703056211
10,saint-joseph,-21.3667,55.6167,303.36,76,100,2.72,RE,1703055953
11,pangody,65.85,74.4859,258.93,94,91,6.4,RU,1703056213
12,olonkinbyen,70.9221,-8.7187,266.96,68,100,8.26,SJ,1703056214
13,thompson,55.7435,-97.8558,244.25,100,22,1.01,CA,1703056215
14,ust-nera,64.5667,143.2,236.42,99,97,2.12,RU,1703056216
15,ta`u,-14.2336,-169.5144,301.12,83,100,3.65,AS,1703056217
16,baardheere,2.3446,42.2764,304.39,47,87,4.68,SO,1703056218
17,cabedelo,-6.9811,-34.8339,298.52,83,100,4.45,BR,1703056219
18,west island,-12.1568,96.8225,303.14,62,60,4.12,CC,1703056220
19,flin flon,54.7682,-101.865,255.34,82,99,3.13,CA,1703056222
20,yellowknife,62.456,-114.3525,255.36,91,100,5.48,CA,1703056019
21,albany,42.6001,-73.9662,271.05,77,5,0.45,US,1703056026
22,zhangjiakou,40.81,114.8794,255.72,61,28,7.26,CN,1703056225
23,laibin,23.7,109.2667,285.72,47,63,7.65,CN,1703056226
24,blackmans bay,-43.0167,147.3167,288.56,63,85,0.45,AU,1703056227
25,horta,38.5333,-28.6333,290.38,82,100,2.68,PT,1703056228
26,tadine,-21.55,167.8833,299.71,79,9,0.18,NC,1703056229
27,port mathurin,-19.6833,63.4167,299.33,80,99,7.93,MU,1703056231
28,orange walk,17.8333,-88.8333,289.23,83,45,0.82,BZ,1703056232
29,wailua homesteads,22.0669,-159.378,295.59,87,100,8.23,US,1703056233
30,port elizabeth,-33.918,25.5701,298.76,78,0,4.47,ZA,1703056195
31,adamstown,-25.066,-130.1015,295.97,80,100,6.92,PN,1703056235
32,huittinen,61.1833,22.7,271.84,84,55,4.27,FI,1703056236
33,chardara,41.2547,67.9692,277.29,36,0,1.21,KZ,1703056237
34,ribeira grande,38.5167,-28.7,290.8,82,99,2.68,PT,1703056238
35,kangding,30.0513,101.9603,284.79,13,0,2.45,CN,1703056241
36,nagqu,31.5,92.0,263.76,49,0,1.31,CN,1703056242
37,grytviken,-54.2811,-36.5092,275.39,79,19,5.94,GS,1703056243
38,kapa'a,22.0752,-159.319,296.33,87,100,8.23,US,1703056244
39,college,64.8569,-147.8028,261.73,84,100,0.0,US,1703056106
40,guerrero negro,27.9769,-114.0611,291.73,75,100,3.46,MX,1703056245
41,mikkeli,61.6886,27.2723,273.21,86,100,8.75,FI,1703056246
42,oral,51.2333,51.3667,274.14,100,100,11.0,KZ,1703056247
43,vorgashor,67.5833,63.95,252.3,96,14,3.05,RU,1703056248
44,fort bragg,35.139,-79.006,273.26,68,0,3.09,US,1703056249
45,edinburgh of the seven seas,-37.0676,-12.3116,289.68,96,100,6.89,SH,1703056250
46,bredasdorp,-34.5322,20.0403,294.26,60,34,1.71,ZA,1703056066
47,shalqar,47.8333,59.6,272.55,92,100,6.48,KZ,1703056251
48,alofi,-19.0595,-169.9187,299.06,86,5,11.07,NU,1703056252
49,saint-pierre,-21.3393,55.4781,303.97,66,40,4.12,RE,1703056253
50,tinghir,31.5157,-5.5343,278.34,24,0,2.44,MA,1703056254
51,remire-montjoly,4.9167,-52.2667,298.17,94,75,0.51,GF,1703056255
52,isafjordur,66.0755,-23.124,268.17,54,75,1.03,IS,1703056256
53,fortaleza,-3.7227,-38.5247,302.08,81,40,2.57,BR,1703056087
54,northam,51.0333,-4.2167,284.07,90,100,9.91,GB,1703056257
55,atherton,53.5237,-2.4935,282.75,85,87,4.92,GB,1703056219
56,uvinza,-5.1036,30.3911,297.79,84,100,0.75,TZ,1703056259
57,callao,-12.0667,-77.15,294.66,83,100,7.2,PE,1703056260
58,polyarnyy,69.1989,33.4478,264.67,95,100,1.04,RU,1703056261
59,dudinka,69.4058,86.1778,259.64,76,100,13.41,RU,1703056262
60,stanley,54.868,-1.6985,280.53,84,0,8.23,GB,1703056263
61,nemuro,43.3236,145.575,271.21,59,5,5.3,JP,1703056264
62,klyuchi,52.2667,79.1667,266.9,92,100,4.75,RU,1703056265
63,porto velho,-8.7619,-63.9039,298.18,94,20,0.0,BR,1703056266
64,papatowai,-46.5619,169.4708,295.18,67,67,2.91,NZ,1703056267
65,new amsterdam,6.25,-57.5167,298.62,86,14,2.4,GY,1703056268
66,acapulco de juarez,16.8634,-99.8901,298.05,88,0,2.06,MX,1703056004
67,aasiaat,68.7098,-52.8699,254.3,97,84,3.89,GL,1703056270
68,weno,7.4515,151.8468,302.12,74,20,3.6,FM,1703056271
69,tiksi,71.6872,128.8694,255.35,91,100,6.11,RU,1703056272
70,petropavlovsk-kamchatsky,53.0452,158.6483,260.48,61,0,4.0,RU,1703056274
71,constantia,44.1833,28.65,278.54,81,0,4.85,RO,1703056275
72,whitehorse,60.7161,-135.0538,258.24,94,96,2.73,CA,1703056276
73,kostel,42.8887,25.995,270.31,76,3,1.99,BG,1703056277
74,tomohon,1.3346,124.8392,299.67,72,51,1.57,ID,1703056278
75,port lincoln,-34.7333,135.8667,289.99,59,89,8.07,AU,1703056279
76,hermanus,-34.4187,19.2345,294.15,72,12,2.77,ZA,1703056280
77,port augusta,-32.5,137.7667,298.58,22,0,10.43,AU,1703056282
78,bilibino,68.0546,166.4372,241.7,97,100,1.37,RU,1703056284
79,luena,-11.7833,19.9167,296.14,73,100,1.56,AO,1703056285
80,oak grove,45.4168,-122.6401,281.68,90,75,4.02,US,1703056286
81,karasuk,53.7377,78.0403,266.76,96,100,3.47,RU,1703056250
82,udachny,66.4167,112.4,248.87,83,77,2.43,RU,1703056288
83,utrik,11.2278,169.8474,299.98,79,100,10.58,MH,1703056289
84,pangkalpinang,-2.1333,106.1333,303.04,68,95,2.44,ID,1703056249
85,newman,37.3138,-121.0208,287.75,93,100,1.34,US,1703056291
86,rio grande,-32.035,-52.0986,292.56,90,100,9.29,BR,1703056177
87,nova xavantina,-14.6667,-52.35,296.65,70,95,1.29,BR,1703056293
88,jamestown,42.097,-79.2353,269.92,96,0,3.6,US,1703056026
89,invercargill,-46.4,168.35,295.74,62,95,4.53,NZ,1703056295
90,ilheus,-14.7889,-39.0494,295.29,95,100,2.3,BR,1703056296
91,ibiza,38.9088,1.433,288.04,66,0,3.09,ES,1703056165
92,usogorsk,63.4106,48.6872,271.76,94,100,4.64,RU,1703056300
93,luderitz,-26.6481,15.1594,295.88,45,0,7.41,NA,1703056301
94,cabo san lucas,22.8909,-109.9124,296.35,69,100,2.96,MX,1703056207
95,afif,23.9065,42.9172,289.92,18,0,5.78,SA,1703056303
96,codrington,-38.2667,141.9667,288.93,55,0,8.25,AU,1703056304
97,georgetown,5.4112,100.3354,306.11,58,20,5.14,MY,1703056305
98,badger,64.8,-147.5333,261.68,86,75,0.0,US,1703056306
99,priozersk,61.0393,30.1291,273.76,92,100,8.69,RU,1703056307
100,toliara,-23.35,43.6667,305.68,50,1,3.97,MG,1703056197
101,ushuaia,-54.8,-68.3,281.09,99,100,3.14,AR,1703056224
102,tsiombe,-25.3,45.4833,303.08,48,9,6.04,MG,1703056310
103,iqaluit,63.7506,-68.5145,250.0,70,75,3.09,CA,1703056311
104,coahuayana de hidalgo,18.7,-103.6583,297.01,90,44,1.18,MX,1703056312
105,bethel,41.3712,-73.414,272.7,70,0,3.6,US,1703056171
106,igarka,67.4667,86.5833,257.59,80,100,10.44,RU,1703056140
107,hawaiian paradise park,19.5933,-154.9731,293.88,96,20,2.57,US,1703056314
108,sanniquellie,7.3622,-8.7061,289.31,35,7,1.46,LR,1703056315
109,bel ombre,-4.6167,55.4167,303.06,74,20,1.03,SC,1703056316
110,keflavik,64.0049,-22.5624,274.39,93,75,7.2,IS,1703056317
111,isna,25.2934,32.554,293.63,30,62,1.31,EG,1703056318
112,la passe,45.5549,-0.8967,282.03,86,1,4.79,FR,1703056319
113,new norfolk,-42.7826,147.0587,289.22,59,75,2.7,AU,1703056320
114,port isabel,26.0734,-97.2086,291.49,83,0,1.54,US,1703056321
115,kapuskasing,49.4169,-82.4331,268.2,74,100,4.12,CA,1703056322
116,lebu,-37.6167,-73.65,284.38,92,54,2.32,CL,1703056323
117,flying fish cove,-10.4217,105.6791,299.97,73,100,2.57,CX,1703056324
118,jackson,42.4165,-122.8345,283.07,90,75,1.54,US,1703056265
119,puerto ayora,-0.7393,-90.3518,297.34,99,98,1.79,EC,1703056326
120,drahichyn,52.1874,25.1597,277.17,97,100,5.2,BY,1703056327
121,naze,28.3667,129.4833,287.64,72,99,9.1,JP,1703056329
122,san luis,-33.295,-66.3356,286.83,90,100,1.81,AR,1703056197
123,chonchi,-42.6128,-73.8092,283.77,78,6,0.94,CL,1703056331
124,sirte,31.2089,16.5887,286.9,61,10,9.59,LY,1703056332
125,coronel dorrego,-38.7187,-61.2873,284.64,88,100,3.11,AR,1703056333
126,shingu,33.7333,135.9833,282.45,60,99,3.83,JP,1703056335
127,las heras,-46.5419,-68.9359,290.81,27,100,2.81,AR,1703056336
128,mossel bay,-34.1831,22.146,294.11,73,37,3.9,ZA,1703056337
129,rialma,-15.315,-49.5844,295.16,89,100,0.43,BR,1703056338
130,dazhou,31.2159,107.5009,282.86,55,88,0.34,CN,1703056339
131,prince rupert,54.3161,-130.3201,278.2,100,100,1.54,CA,1703056213
132,longyearbyen,78.2186,15.6401,265.06,67,100,7.72,SJ,1703056341
133,sur,22.5667,59.5289,297.32,55,40,4.23,OM,1703056342
134,puqi,29.7167,113.8833,279.41,62,50,3.02,CN,1703056343
135,broome,42.2506,-75.833,269.56,89,20,2.06,US,1703056345
136,barra de santo antonio,-9.4047,-35.5072,298.75,90,100,4.81,BR,1703056346
137,ca' savio,45.4538,12.4573,277.01,93,2,2.06,IT,1703056347
138,merizo village,13.2658,144.6691,302.46,79,48,8.6,GU,1703056348
139,ugoofaaru,5.6667,73.0,301.69,78,41,7.84,MV,1703056350
140,iskateley,67.6803,53.1512,262.05,93,100,5.81,RU,1703056351
141,arno,60.1167,18.6333,273.03,96,55,3.58,SE,1703056352
142,st. john's,47.5649,-52.7093,285.19,91,100,2.68,CA,1703056148
143,thunder bay,48.4001,-89.3168,268.78,73,86,3.48,CA,1703056138
144,valparaiso,-33.0393,-71.6273,284.95,82,0,1.03,CL,1703056124
145,puerto el triunfo,13.2833,-88.55,294.18,66,6,4.09,SV,1703056356
146,el dovio,4.5079,-76.2362,290.73,98,100,0.75,CO,1703056357
147,gamba,-2.65,10.0,299.55,84,97,2.56,GA,1703056358
148,kot diji,27.3427,68.7083,295.16,16,0,1.27,PK,1703056298
149,glace bay,46.1969,-59.957,284.2,98,100,3.6,CA,1703056359
150,ingeniero guillermo n. juarez,-23.9,-61.85,291.77,93,100,4.06,AR,1703056361
151,ilulissat,69.2167,-51.1,258.16,61,13,7.72,GL,1703056362
152,kupiskis,55.8333,24.9667,274.57,93,100,3.56,LT,1703056363
153,keuruu,62.2667,24.7,273.25,91,100,5.76,FI,1703056364
154,margaret river,-33.95,115.0667,301.08,39,100,3.83,AU,1703056189
155,las tablas,7.7667,-80.2833,296.58,99,18,7.86,PA,1703056366
156,okulovka,58.4008,33.2908,273.31,84,21,7.37,RU,1703056299
157,pizarro,4.9533,-77.366,298.87,88,69,1.17,CO,1703056369
158,riviere-du-loup,47.8304,-69.5342,269.64,86,6,3.09,CA,1703056370
159,bafoulabe,13.8065,-10.8321,289.63,17,100,2.31,ML,1703056371
160,zhanaozen,43.3,52.8,279.54,84,58,6.87,KZ,1703056167
161,qaqortoq,60.7167,-46.0333,274.69,98,100,7.88,GL,1703056373
162,dapa,9.7594,126.0531,301.64,72,7,2.29,PH,1703056374
163,selkirk,50.1436,-96.8845,263.19,84,100,0.45,CA,1703056374
164,bikenibeu village,1.3673,173.1241,301.75,81,100,8.34,KI,1703056375
165,mindelo,16.8901,-24.9804,295.9,64,100,8.75,CV,1703056376
166,embalenhle,-26.5333,29.0667,296.24,69,0,2.63,ZA,1703056377
167,fuglafjordur,62.244,-6.814,275.41,61,100,4.41,FO,1703056378
168,nenjiang,49.1833,125.2167,249.1,91,73,1.33,CN,1703056379
169,pisco,-13.7,-76.2167,293.18,88,100,4.12,PE,1703056380
170,kavaratti,10.5669,72.642,301.58,73,100,2.91,IN,1703056380
171,hamilton,39.1834,-84.5333,272.47,75,40,4.02,US,1703056247
172,nar'yan-mar,67.6713,53.087,262.1,93,100,5.81,RU,1703056382
173,george,-33.963,22.4617,292.9,77,75,3.09,ZA,1703056383
174,ghanzi,-21.5667,21.7833,299.49,55,89,7.42,BW,1703056384
175,touros,-5.1989,-35.4608,298.63,87,100,4.04,BR,1703056385
176,wewak,-3.5534,143.6268,298.07,93,100,1.59,PG,1703056386
177,kill devil hills,36.0307,-75.676,279.25,65,0,5.14,US,1703056387
178,goundi,9.3627,17.366,300.32,24,100,2.07,TD,1703056388
179,carlsbad,33.1581,-117.3506,290.62,87,100,1.54,US,1703056275
180,corner brook,48.9667,-57.9484,284.24,92,100,3.79,CA,1703056386
181,kokopo,-4.352,152.2633,299.85,84,100,2.32,PG,1703056391
182,ghadamis,30.1337,9.5007,282.99,80,95,6.32,LY,1703056392
183,kolonia,50.9333,6.95,280.29,86,75,6.69,DE,1703056364
184,johvi,59.3592,27.4211,273.39,80,9,8.82,EE,1703056394
185,zaozersk,69.4005,32.4476,266.29,95,100,1.95,RU,1703056395
186,labrador city,52.9463,-66.9114,258.1,78,0,2.57,CA,1703056288
187,afaahiti,-17.75,-149.2833,299.08,91,100,6.03,PF,1703056397
188,uturoa,-16.7333,-151.4333,300.07,81,100,4.17,PF,1703056398
189,lovrin,45.9681,20.7703,276.05,71,100,1.98,RO,1703056398
190,mudgee,-32.5943,149.5871,291.36,84,100,4.12,AU,1703056400
191,tolanaro,-25.0319,46.9987,300.96,62,37,2.81,MG,1703056401
192,novodvinsk,64.4165,40.8122,273.01,89,100,3.75,RU,1703056402
193,tongchuanshi,35.0806,109.0897,272.03,43,8,0.51,CN,1703056403
194,gazi,35.3253,25.0669,287.63,71,20,2.57,GR,1703056404
195,vadso,70.0744,29.7487,271.24,80,75,4.63,NO,1703056405
196,ambon,-3.6954,128.1814,306.23,62,40,3.09,ID,1703056406
197,alaghsas,17.0187,8.0168,292.09,26,6,2.57,NE,1703056407
198,san antonio de pale,-1.4014,5.6325,300.14,81,93,2.44,GQ,1703056408
199,le port,-20.9373,55.2919,304.15,98,60,2.81,RE,1703056409
200,maceio,-9.6658,-35.7353,298.84,94,0,3.6,BR,1703056410
201,hasaki,35.7333,140.8333,285.53,33,27,0.37,JP,1703056411
202,hakui,36.8833,136.7833,279.16,89,100,2.86,JP,1703056412
203,malanje,-9.5402,16.341,294.09,92,100,1.1,AO,1703056413
204,nasice,45.4886,18.0878,277.51,74,0,1.3,HR,1703056414
205,moramanga,-18.9333,48.2,301.26,48,100,1.07,MG,1703056415
206,puerto baquerizo moreno,-0.9,-89.6,297.08,91,83,5.11,EC,1703056416
207,wynyard,-41.0,145.7167,289.96,48,4,3.65,AU,1703056417
208,al mindak,20.1588,41.2834,288.93,43,0,2.56,SA,1703056418
209,portales,34.1862,-103.3344,281.89,49,100,3.29,US,1703056419
210,salida,37.7058,-121.0849,288.34,96,0,3.6,US,1703056419
211,palopo,-2.9996,120.1921,302.41,77,82,1.67,ID,1703056420
212,sao miguel do araguaia,-13.275,-50.1628,294.88,90,87,0.93,BR,1703056412
213,jutai,-5.1833,-68.9,296.64,99,100,0.97,BR,1703056279
214,faya-largeau,17.9257,19.1043,294.97,29,74,6.43,TD,1703056423
215,strelka,58.0728,93.0344,252.08,87,95,3.69,RU,1703056424
216,tura,25.5198,90.2201,297.57,41,48,1.31,IN,1703056314
217,nakonde,-9.3421,32.745,298.31,57,97,1.42,ZM,1703056426
218,ketchikan,55.3422,-131.6461,278.14,100,100,3.6,US,1703056427
219,tazovsky,67.4667,78.7,259.47,91,99,7.51,RU,1703056427
220,nyurba,63.2842,118.3319,248.15,93,100,3.87,RU,1703056428
221,fada,9.5667,8.3,296.81,25,6,1.12,NG,1703056429
222,fortuna,40.5982,-124.1573,284.63,97,100,5.66,US,1703056430
223,gunjur,13.2019,-16.7339,292.19,19,100,5.66,GM,1703056431
224,port saint john's,-31.6229,29.5448,298.0,71,70,3.69,ZA,1703056432
225,lukhovka,54.1484,45.2573,274.73,99,100,6.88,RU,1703056433
226,sumter,28.7086,-82.0831,283.2,82,85,3.82,US,1703056359
227,leck,54.7669,8.9785,279.28,89,100,8.61,DE,1703056434
228,conceicao do mato dentro,-19.0372,-43.425,291.14,99,87,0.62,BR,1703056435
229,cannonvale,-20.2833,148.7,299.81,73,2,5.51,AU,1703056436
230,brisas de zicatela,15.8369,-97.0419,295.05,53,0,2.68,MX,1703056437
231,ancud,-41.8697,-73.8203,285.33,78,90,1.39,CL,1703056438
232,mikumi,-7.4041,36.9831,300.76,72,100,1.96,TZ,1703056439
233,newton,42.337,-71.2092,274.01,77,0,5.66,US,1703056439
234,eenhana,-17.4667,16.3333,299.75,51,89,3.1,NA,1703056440
235,antsiranana,-12.2787,49.2917,304.25,58,29,2.35,MG,1703056441
236,la'ie,21.6477,-157.9253,298.13,79,100,10.34,US,1703056442
237,kodiak,57.79,-152.4072,271.88,93,100,2.06,US,1703056444
238,grand rapids,42.9634,-85.6681,273.1,72,20,3.6,US,1703056445
239,mhamid,29.82,-5.72,280.39,36,0,1.38,MA,1703056446
240,jatibarang,-6.4747,108.3153,305.28,53,100,3.92,ID,1703056181
241,sampit,-2.5333,112.95,301.31,79,100,1.46,ID,1703056448
242,prieska,-29.6641,22.7474,304.36,16,0,1.44,ZA,1703056449
243,atafu village,-8.5421,-172.5159,302.79,74,100,4.66,TK,1703056450
244,fale old settlement,-9.3852,-171.2468,302.58,73,100,4.64,TK,1703056451
245,chany,55.3121,76.7647,261.59,96,85,3.16,RU,1703056452
246,portland,45.5234,-122.6762,281.95,91,75,3.58,US,1703056257
247,i-n-salah,27.1935,2.4607,282.01,61,0,2.96,DZ,1703056454
248,piacabucu,-10.4056,-36.4344,298.65,76,53,5.12,BR,1703056252
249,vryburg,-26.9566,24.7284,302.6,42,0,7.75,ZA,1703056456
250,talnakh,69.4865,88.3972,258.82,67,100,11.02,RU,1703056457
251,yallahs,17.8748,-76.5624,298.0,84,41,4.51,JM,1703056458
252,tete,-16.1564,33.5867,305.2,55,75,2.57,MZ,1703056459
253,yelizovo,53.1873,158.3805,261.23,61,0,4.0,RU,1703056460
254,constitucion,-35.3333,-72.4167,283.67,89,0,2.51,CL,1703056461
255,punta arenas,-53.15,-70.9167,284.21,82,0,2.57,CL,1703056231
256,chamba,32.5667,76.1333,296.8,12,57,2.46,IN,1703056462
257,firuzabad,28.8438,52.5707,284.96,53,0,1.3,IR,1703056463
258,tigwav,18.4314,-72.8669,298.1,83,53,3.29,HT,1703056464
259,veraval,20.9,70.3667,300.75,37,100,2.83,IN,1703056465
260,sen monorom,12.45,107.2,300.15,53,100,4.52,KH,1703056467
261,vila franca do campo,37.7167,-25.4333,291.42,99,100,4.96,PT,1703056468
262,villa ojo de agua,-29.5,-63.6938,286.06,97,100,6.67,AR,1703056469
263,port-cartier,50.0334,-66.8654,270.21,61,1,2.79,CA,1703056470
264,ashland,40.8167,-82.2665,269.8,94,92,3.17,US,1703056471
265,anton lizardo,19.05,-95.9833,294.04,58,75,1.03,MX,1703056472
266,dzhetygara,52.1908,61.2006,268.11,90,100,8.48,KZ,1703056473
267,motygino,58.1831,94.7592,250.25,87,3,2.24,RU,1703056474
268,zemio,5.0314,25.1361,302.54,40,100,0.19,CF,1703056288
269,brokopondo,4.75,-55.1667,299.03,84,99,3.44,SR,1703056476
270,minas de marcona,-15.2119,-75.1103,289.0,87,92,4.85,PE,1703056477
271,lata,40.1629,-8.3327,282.08,88,100,1.64,PT,1703056478
272,rongelap,11.1635,166.8941,300.23,79,100,9.84,MH,1703056478
273,male,4.1748,73.5089,302.12,84,75,9.26,MV,1703056479
274,porto novo,6.4965,2.6036,299.05,83,7,2.72,BJ,1703056480
275,deniliquin,-35.5333,144.9667,301.92,14,0,6.39,AU,1703056481
276,port hueneme,34.1478,-119.1951,290.02,95,100,3.09,US,1703056482
277,beaufort,5.3473,115.7455,303.19,72,76,2.57,MY,1703056483
278,puerto maldonado,-12.6,-69.1833,296.87,93,100,0.92,PE,1703056484
279,rockingham,42.9668,-71.0995,273.21,78,3,2.64,US,1703056486
280,mount isa,-20.7333,139.5,313.02,27,2,7.72,AU,1703056487
281,mirny,62.5353,113.9611,247.11,94,100,4.14,RU,1703056274
282,soroti,1.7146,33.6111,302.16,39,86,3.11,UG,1703056488
283,honcho,35.6931,139.9833,285.76,46,0,1.54,JP,1703056489
284,coruripe,-10.1256,-36.1756,298.48,81,82,6.44,BR,1703056490
285,sao felix do xingu,-6.6447,-51.995,294.0,98,100,0.49,BR,1703056491
286,kamennogorsk,60.9545,29.1339,274.98,85,100,7.01,RU,1703056492
287,carbonear,47.7332,-53.2148,285.45,94,100,9.54,CA,1703056493
288,magistral'nyy,56.1725,107.4458,242.8,90,6,1.22,RU,1703056494
289,qamdo,31.1667,97.2333,270.87,14,0,0.66,CN,1703056494
290,vorkuta,67.5,64.0,251.37,97,14,2.49,RU,1703056495
291,santa elena de uairen,4.6167,-61.1333,295.32,76,61,1.39,VE,1703056496
292,soligalich,59.0778,42.2864,272.42,86,99,6.44,RU,1703056498
293,canutama,-6.5339,-64.3831,297.13,97,100,0.6,BR,1703056499
294,vila do maio,15.1333,-23.2167,296.59,67,100,8.94,CV,1703056499
295,mzimba,-11.9,33.6,300.84,48,100,3.14,MW,1703056500
296,vilyuchinsk,52.9306,158.4028,261.3,70,84,4.28,RU,1703056501
297,san patricio,28.017,-97.5169,291.07,76,100,3.28,US,1703056503
298,carnarvon,-24.8667,113.6333,299.27,65,0,6.14,AU,1703056504
299,breves,-1.6822,-50.4803,297.66,92,100,1.77,BR,1703056449
300,benevento,41.2179,14.7464,281.88,72,13,0.52,IT,1703056507
301,farafangana,-22.8167,47.8333,302.04,61,17,3.26,MG,1703056508
302,karratha,-20.7377,116.8463,304.97,44,0,9.45,AU,1703056509
303,alesund,62.4723,6.1549,277.23,79,75,11.32,NO,1703056510
304,walvis bay,-22.9575,14.5053,289.87,68,14,3.47,NA,1703056511
305,mucumpiz,8.4167,-71.1333,287.56,95,94,0.23,VE,1703056512
306,creel,27.75,-107.6333,277.67,70,90,0.21,MX,1703056513
307,paita,-5.0892,-81.1144,294.49,85,35,4.51,PE,1703056514
308,enewetak,11.3474,162.3373,300.45,79,54,10.08,MH,1703056515
309,okha,53.5739,142.9478,251.8,94,100,7.92,RU,1703056367
310,melendugno,40.2747,18.3368,278.2,100,75,0.0,IT,1703056518
311,ravar,31.2656,56.8055,284.77,30,0,1.45,IR,1703056350
312,raduzhny,62.0961,77.475,259.04,96,91,3.92,RU,1703056520
313,puerto real,36.5282,-6.1901,276.82,93,0,2.06,ES,1703056521
314,barrouallie,13.2333,-61.2667,297.19,79,5,3.13,VC,1703056522
315,camarinas,43.1311,-9.1817,284.36,75,93,8.73,ES,1703056523
316,anjar,23.1333,70.0167,297.38,27,100,6.17,IN,1703056524
317,santa maria,-29.6842,-53.8069,291.96,92,100,1.72,BR,1703056525
318,alice springs,-23.7,133.8833,306.9,9,0,5.66,AU,1703056526
319,saint-philippe,-21.3585,55.7679,303.92,77,100,2.75,RE,1703056527
320,inkerman,44.6,33.6,283.01,58,26,5.41,UA,1703056528
321,asau,46.4333,26.4,269.66,53,0,2.87,RO,1703056529
322,ghat,24.9647,10.1728,279.64,63,0,1.88,LY,1703056530
323,zima,53.9202,102.0442,249.28,86,5,3.73,RU,1703056531
324,magadan,59.5667,150.8,249.0,86,38,4.56,RU,1703056532
325,chinde,26.8418,88.0763,290.99,41,100,2.47,NP,1703056533
326,beyneu,45.3167,55.2,277.44,93,100,4.73,KZ,1703056534
327,susuman,62.7833,148.1667,235.69,100,99,0.17,RU,1703056535
328,truro,50.2653,-5.0544,283.57,93,75,9.77,GB,1703056536
329,lorengau,-2.0226,147.2712,300.86,80,100,2.21,PG,1703056537
330,richmond,37.5538,-77.4603,271.92,79,0,3.09,US,1703056230
331,kristiansund,63.1115,7.732,274.51,51,0,3.09,NO,1703056539
332,waveland,30.2869,-89.3762,280.18,58,100,4.03,US,1703056540
333,caianu mic,47.2333,24.15,274.71,75,8,0.91,RO,1703056542
334,turhal,40.3875,36.0811,273.29,68,0,1.03,TR,1703056269
335,vila velha,-20.3297,-40.2925,296.12,94,75,0.0,BR,1703056259
336,aiquile,-18.2041,-65.1807,287.68,92,100,1.0,BO,1703056545
337,huazhou,21.6333,110.5833,288.04,52,100,4.53,CN,1703056545
338,kidal,18.4411,1.4078,283.73,29,57,6.34,ML,1703056546
339,mochudi,-24.4167,26.15,298.48,44,8,4.29,BW,1703056268
340,mount pearl,47.5166,-52.7813,284.73,91,40,10.29,CA,1703056548
341,moyale,3.5167,39.0584,300.94,33,71,6.36,KE,1703056550
342,champerico,14.3,-91.9167,296.41,68,5,2.02,GT,1703056550
343,mangai,-4.05,19.5333,296.64,94,100,0.31,CD,1703056551
344,pathein,16.7833,94.7333,304.36,40,31,2.2,MM,1703056552
345,solnechnyy,50.7214,136.6319,247.06,98,100,1.2,RU,1703056553
346,vilyuysk,63.7553,121.6247,248.15,93,100,3.13,RU,1703056554
347,murghob,38.1702,73.9667,263.59,47,28,1.46,TJ,1703056556
348,kiunga,-6.1219,141.2906,300.14,96,100,1.11,PG,1703056557
349,ayutinskiy,47.77,40.14,277.94,93,100,5.89,RU,1703056557
350,lihue,21.9789,-159.3672,295.92,83,100,8.23,US,1703056374
351,opuwo,-18.0607,13.84,301.47,23,77,2.65,NA,1703056559
352,saipan,15.1355,145.701,301.54,61,0,6.69,MP,1703056560
353,kerikeri,-35.2268,173.9474,292.58,76,100,2.06,NZ,1703056561
354,yeppoon,-23.1333,150.7333,303.03,70,4,7.19,AU,1703056562
355,sittwe,20.15,92.9,298.08,57,87,2.62,MM,1703056563
356,castanos,26.7833,-101.4167,283.9,76,0,2.06,MX,1703056565
357,chibougamau,49.9168,-74.3659,262.94,85,100,5.66,CA,1703056566
358,karaton,-6.3424,106.1045,306.66,39,100,4.34,ID,1703056567
359,praia,14.9215,-23.5087,296.45,68,100,9.26,CV,1703056568
360,palangkaraya,-2.2,113.8333,301.83,76,100,0.94,ID,1703056569
361,tan-tan,28.438,-11.1032,284.12,93,0,1.54,MA,1703056572
362,namibe,-15.1961,12.1522,296.55,73,68,0.79,AO,1703056574
363,waterloo,43.4668,-80.5164,271.92,86,100,4.63,CA,1703055982
364,daru,-9.0763,143.2092,298.75,89,100,2.27,PG,1703056576
365,sarkand,45.41,79.9186,273.76,95,100,0.92,KZ,1703056577
366,kenai,60.5544,-151.2583,259.18,100,100,2.06,US,1703056578
367,eastham,41.8301,-69.9739,277.01,78,0,3.6,US,1703056579
368,mtsamboro,-12.6998,45.0689,301.77,71,100,1.94,YT,1703056581
369,baise city,23.8997,106.6133,288.9,99,48,2.04,CN,1703056368
370,sinabang,2.4803,96.3801,301.92,73,98,0.43,ID,1703056583
371,gorontalo,0.5412,123.0595,301.89,86,100,0.55,ID,1703056584
372,yuzhno-kurilsk,44.0306,145.8556,270.58,76,85,4.61,RU,1703056585
373,singkil,-7.9855,111.4161,304.2,50,25,4.11,ID,1703056586
374,belyy yar,53.6039,91.3903,249.09,84,100,1.0,RU,1703056587
375,kruisfontein,-34.0033,24.7314,297.53,52,0,4.1,ZA,1703056588
376,mombetsu,44.3525,143.3525,270.16,50,20,4.12,JP,1703056589
377,lauderdale-by-the-sea,26.192,-80.0964,294.17,69,100,7.72,US,1703056590
378,bereznik,62.8551,42.7072,272.03,86,96,5.47,RU,1703056591
379,wenchang,30.904,118.4887,276.42,37,0,3.08,CN,1703056592
380,waingapu,-9.6567,120.2641,303.28,65,100,3.17,ID,1703056593
381,mejit,10.2753,170.8646,300.22,79,100,10.23,MH,1703056594
382,karlskrona,56.1616,15.5866,277.4,91,100,6.73,SE,1703056595
383,ulsteinvik,62.3432,5.8487,277.22,86,100,10.73,NO,1703056596
384,queenstown,-31.8976,26.8753,299.33,38,0,0.9,ZA,1703056597
385,korla,41.7597,86.1469,269.62,52,100,1.89,CN,1703056598
386,east london,-33.0153,27.9116,299.67,69,0,4.12,ZA,1703056599
387,saint-francois,46.4154,3.9054,279.84,100,100,4.63,FR,1703056600
388,choma,-16.8065,26.9531,294.43,84,99,3.21,ZM,1703056601
389,oum hadjer,13.2954,19.6966,298.63,21,11,4.09,TD,1703056602
390,trincomalee,8.5711,81.2335,300.49,83,100,4.98,LK,1703056603
391,kitimat,54.0524,-128.6534,274.36,100,100,1.16,CA,1703056604
392,bayanhongor,46.7167,100.1167,246.68,76,3,0.65,MN,1703056604
393,chegdomyn,51.1167,133.0167,243.88,96,48,0.41,RU,1703056605
394,hiratacho,35.4333,132.8167,279.13,61,75,6.69,JP,1703056606
395,papao,-17.75,-149.55,299.97,85,100,6.78,PF,1703056607
396,santarem,-2.4431,-54.7083,298.22,100,40,0.51,BR,1703056601
397,pobugskoye,48.1658,30.5927,276.11,82,9,3.46,UA,1703056609
398,necochea,-38.5473,-58.7368,285.92,84,100,2.64,AR,1703056610
399,vokhtoga,58.8147,41.0461,272.91,85,100,6.35,RU,1703056611
400,taltal,-25.4,-70.4833,290.0,84,32,0.31,CL,1703056611
401,tostado,-29.232,-61.7692,292.03,90,100,3.94,AR,1703056612
402,lerwick,60.1545,-1.1494,278.15,57,100,13.05,GB,1703056613
403,vung tau,10.346,107.0843,301.32,68,67,4.05,VN,1703056614
404,lompoc,34.6391,-120.4579,289.0,90,100,3.6,US,1703056370
405,tralee,52.2704,-9.7026,283.39,89,88,8.76,IE,1703056616
406,torit,4.4133,32.5678,305.18,32,84,1.17,SS,1703056616
407,mata-utu,-13.2816,-176.1745,302.16,76,95,2.89,WF,1703056617
408,tortoli,39.9256,9.6572,285.05,76,0,1.54,IT,1703056618
409,exu,-7.5119,-39.7242,295.68,83,44,4.64,BR,1703056619
410,cururupu,-1.8283,-44.8683,300.11,76,100,2.83,BR,1703056620
411,jinghong,21.991,100.7341,299.81,45,93,1.7,CN,1703056621
412,caister-on-sea,52.6481,1.7265,280.28,82,80,10.61,GB,1703056624
413,verkhnevilyuysk,63.4453,120.3167,248.89,91,100,3.52,RU,1703056625
414,thinadhoo,0.5333,72.9333,301.46,77,55,3.65,MV,1703056626
415,port macquarie,-31.4333,152.9167,294.2,94,100,2.32,AU,1703056628
416,graneros,-34.0667,-70.7333,284.57,58,0,1.47,CL,1703056545
417,dubovka,49.0583,44.829,276.68,93,100,9.23,RU,1703056630
418,bardai,11.65,7.2333,292.7,32,0,2.43,NG,1703056631
419,kailua-kona,19.6406,-155.9956,295.65,89,100,0.22,US,1703056474
420,uliastay,47.7417,96.8444,255.49,63,100,0.07,MN,1703056633
421,ribeira brava,32.65,-17.0667,291.5,69,20,3.81,PT,1703056634
422,savoy,45.5,6.4167,272.49,84,100,0.67,FR,1703056635
423,puerto leguizamo,-0.1934,-74.7819,297.19,93,99,1.05,CO,1703056636
424,liwonde,-15.0506,35.2035,301.36,65,100,1.13,MW,1703056637
425,taro,-8.3862,115.28,299.18,50,69,2.58,ID,1703056638
426,mermoz boabab,14.7065,-17.4758,292.03,30,100,8.23,SN,1703056639
427,ziway,7.9333,38.7167,294.51,48,100,3.03,ET,1703056365
428,zaragoza,41.6561,-0.8773,285.4,68,20,9.77,ES,1703056376
429,jinxiang,27.4327,120.6062,280.44,74,100,5.76,CN,1703056641
430,san rafael,-34.6177,-68.3301,283.24,79,100,2.53,AR,1703056643
431,vom,9.7333,8.7833,293.83,27,6,2.17,NG,1703056644
432,pengcheng,36.4311,114.17,266.07,69,5,0.91,CN,1703056645
433,jincheng,35.5022,112.8328,266.22,60,0,6.84,CN,1703056645
434,samana,19.2056,-69.3369,296.36,88,25,1.42,DO,1703056646
435,rio gallegos,-51.6226,-69.2181,284.18,71,0,2.06,AR,1703056647
436,buala,-8.145,159.5921,301.33,74,95,0.23,SB,1703056648
437,guatrache,-37.6678,-63.5302,284.75,92,100,2.97,AR,1703056649
438,olinda,-8.0089,-34.8553,298.0,100,75,1.54,BR,1703056650
439,island harbour,50.724,-1.2758,282.03,88,100,3.13,GB,1703056651
440,helmstedt,52.2279,11.0099,279.01,81,100,9.02,DE,1703056652
441,tupelo,34.2576,-88.7034,274.32,59,0,0.0,US,1703056653
442,zheleznodorozhnyy,55.7503,38.0042,277.25,97,100,4.92,RU,1703056654
443,moab,38.5733,-109.5498,280.09,41,100,0.43,US,1703056655
444,tarawa,1.419,172.984,301.77,81,100,8.32,KI,1703056656
445,mando,10.7167,6.5667,295.16,29,6,2.91,NG,1703056657
446,quellon,-43.1167,-73.6167,283.95,75,32,1.55,CL,1703056658
447,castillos,-34.1667,-53.8333,290.83,75,100,4.62,UY,1703056659
448,beloha,-25.1667,45.05,304.16,40,3,5.79,MG,1703056660
449,kramfors,62.9316,17.7765,269.04,80,10,1.03,SE,1703056661
450,mitu,1.1983,-70.1733,296.52,93,18,0.33,CO,1703056662
451,lethem,3.3803,-59.7968,300.23,66,73,4.63,GY,1703056663
452,filadelfia,39.9523,-75.1638,273.15,69,0,4.12,US,1703056614
453,katsuura,35.1333,140.3,285.39,58,100,3.11,JP,1703056664
454,totoras,-32.5844,-61.1685,288.17,84,100,3.89,AR,1703056665
455,nong khai,17.9167,103.0833,302.31,45,60,3.29,TH,1703056666
456,naama,33.2667,-0.3167,275.78,93,0,4.35,DZ,1703056667
457,saldanha,-33.0117,17.9442,291.64,75,0,7.16,ZA,1703056668
458,padang,-0.9492,100.3543,304.18,85,100,3.5,ID,1703056669
459,kingsford,-33.924,151.2275,290.47,91,100,10.29,AU,1703056670
460,aswan,24.0934,32.907,294.33,48,20,2.79,EG,1703056671
461,puerto gaitan,4.3133,-72.0816,298.83,79,57,1.95,CO,1703056672
462,tatishchevo,51.6703,45.5953,275.51,99,100,7.91,RU,1703056672
463,charters towers,-20.1,146.2667,304.09,47,96,8.5,AU,1703056673
464,bamboo flat,11.7,92.7167,303.2,70,20,5.14,IN,1703056674
465,redencao,-4.2258,-38.7306,297.52,92,100,1.13,BR,1703056675
466,alenquer,-1.9417,-54.7383,297.94,94,100,2.09,BR,1703056676
467,tulun,54.5611,100.5792,249.61,88,5,4.02,RU,1703056677
468,iwon-up,40.3231,128.6553,267.37,49,84,1.0,KP,1703056678
469,lauro de freitas,-12.8944,-38.3272,299.16,89,75,2.57,BR,1703056678
470,yarmouth,41.7057,-70.2286,277.02,76,20,8.49,US,1703056679
471,robit,12.0167,39.6333,294.66,52,92,2.29,ET,1703056680
472,marshall,34.3834,-86.3333,274.99,69,0,2.06,US,1703056681
473,viedma,-40.8135,-62.9967,286.79,65,100,3.85,AR,1703056682
474,vrsac,45.1167,21.3036,274.05,86,0,1.54,RS,1703056683
475,manaure,11.7751,-72.4445,298.29,86,0,3.6,CO,1703056684
476,sitka,57.0531,-135.33,277.09,75,100,6.17,US,1703056685
477,balabac,7.9868,117.0645,301.24,80,97,4.69,PH,1703056686
478,jacobina,-11.1806,-40.5183,293.46,88,67,0.97,BR,1703056687
479,el colomo,19.05,-104.25,296.1,91,5,1.84,MX,1703056688
480,kone,-21.0595,164.8658,300.76,64,6,2.99,NC,1703056689
481,brezina,33.0989,1.2608,277.56,64,0,7.1,DZ,1703056690
482,revda,56.801,59.9303,269.72,91,100,6.3,RU,1703056692
483,hirara,24.8,125.2833,292.07,100,75,13.38,JP,1703056693
484,chuarrancho,14.8217,-90.5086,284.03,96,70,1.63,GT,1703056694
485,happy valley-goose bay,53.3168,-60.3315,275.32,75,75,6.69,CA,1703056695
486,paradip garh,20.3167,86.6167,297.64,37,2,4.65,IN,1703056696
487,prince george,53.9166,-122.753,276.62,98,100,4.63,CA,1703056697
488,fontaine-les-dijon,47.3424,5.0201,277.71,100,75,5.66,FR,1703056698
489,salalah,17.0151,54.0924,301.2,51,0,2.06,OM,1703056699
490,griffith,41.5284,-87.4237,273.65,69,0,4.63,US,1703056700
491,skhirate,33.8498,-7.0404,280.98,76,0,1.54,MA,1703056701
492,boende,-0.2167,20.8667,297.79,84,100,1.21,CD,1703056702
493,klaksvik,62.2266,-6.589,275.66,58,100,5.57,FO,1703056703
494,kilindoni,-7.9139,39.6668,302.22,74,31,5.13,TZ,1703056704
495,fort st. john,56.2499,-120.8529,266.09,93,75,2.57,CA,1703056705
496,greenville,35.6127,-77.3663,273.24,75,0,1.54,US,1703056529
497,boa vista,2.8197,-60.6733,301.14,69,0,4.12,BR,1703056583
498,ingeniero jacobacci,-41.3427,-69.5448,283.11,59,100,6.01,AR,1703056707
499,bahir dar,11.5936,37.3908,295.51,46,100,0.76,ET,1703056708
500,coalcoman de vazquez pallares,18.7833,-103.15,291.17,96,48,0.34,MX,1703056709
501,aykhal,66.0,111.5,253.34,73,100,3.48,RU,1703056710
502,taoudenni,22.6783,-3.9836,283.0,52,100,4.36,ML,1703056711
503,mangalia,43.8,28.5833,281.29,83,0,5.02,RO,1703056712
504,sambava,-14.2667,50.1667,303.7,55,0,3.68,MG,1703056713
505,mugia,43.1041,-9.2179,284.35,74,94,9.19,ES,1703056714
506,ongjin,37.9347,125.3619,265.82,78,100,10.17,KP,1703056715
507,turpan,42.9333,89.1667,268.84,34,12,0.22,CN,1703056716
508,anadyr,64.75,177.4833,247.43,76,0,5.0,RU,1703056717
509,shamakhi,40.6314,48.6414,277.59,54,0,2.44,AZ,1703056718
510,gadzhiyevo,69.2551,33.3362,264.58,96,100,1.16,RU,1703056719
511,kuanda,56.3161,116.0806,244.48,97,100,0.58,RU,1703056719
512,savur,37.5388,40.8877,283.81,48,8,1.53,TR,1703056720
513,gombong,-7.6072,109.5142,302.89,54,100,3.5,ID,1703056721
514,novofedorivka,46.1713,32.3178,282.09,87,2,6.67,UA,1703056722
515,embi,48.8264,58.1442,272.77,91,100,7.27,KZ,1703056723
516,wangaratta,-36.3667,146.3333,299.43,46,31,5.32,AU,1703056724
517,farrokh shahr,32.2717,50.9801,278.74,33,0,1.03,IR,1703056725
518,jumla,29.2747,82.1838,291.97,9,81,2.51,NP,1703056506
519,stephenville,32.2207,-98.2023,284.59,73,0,3.09,US,1703056727
520,langsa,4.4683,97.9683,304.49,56,100,2.12,ID,1703056728
521,mar del plata,-38.0023,-57.5575,289.87,80,100,8.05,AR,1703056729
522,lakhipur,26.0299,90.3041,297.22,51,99,3.12,IN,1703056729
523,tutova,46.1167,27.55,276.43,75,0,1.95,RO,1703056731
524,zhangye,38.9342,100.4517,265.47,60,92,2.46,CN,1703056732
525,khilok,51.3674,110.4676,252.35,77,53,2.51,RU,1703056733
526,calama,-22.4667,-68.9333,285.42,40,0,7.2,CL,1703056546
527,al bawiti,28.3492,28.8659,287.76,66,100,3.26,EG,1703056735
528,mount gambier,-37.8333,140.7667,289.12,54,0,6.07,AU,1703056735
529,lolodorf,3.2333,10.7333,296.9,90,90,0.95,CM,1703056736
530,new ross,52.3967,-6.9367,283.56,1,100,7.49,IE,1703056737
531,wauchope,-31.45,152.7333,294.24,99,100,1.07,AU,1703056738
532,khandyga,62.6667,135.6,230.67,98,100,0.88,RU,1703056739
533,ban karon,7.8477,98.2985,305.25,59,100,1.39,TH,1703056740
534,ishinomaki,38.4167,141.3,278.15,94,96,5.83,JP,1703056741
535,kupang,-10.1667,123.5833,306.47,62,40,6.69,ID,1703056742
536,pacocha,-17.5833,-71.3333,293.32,86,82,2.82,PE,1703056743
537,praia da vitoria,38.7333,-27.0667,290.29,82,40,7.42,PT,1703056744
538,mahanoro,-19.9,48.8,302.5,64,97,3.18,MG,1703056745
539,tambopata,-12.7333,-69.1833,296.88,90,100,0.98,PE,1703056746
540,aalten,51.9167,6.5833,280.34,83,100,7.88,NL,1703056746
541,saint george's,12.0564,-61.7485,298.97,83,20,4.12,GD,1703056747
542,greymouth,-42.4667,171.2,288.78,68,100,1.08,NZ,1703056748
543,mana,5.6592,-53.7767,298.45,93,22,3.95,GF,1703056749
544,asubulaq,49.5583,83.0558,264.24,77,100,2.86,KZ,1703056750
545,mancio lima,-7.6142,-72.8958,296.61,94,100,0.58,BR,1703056751
546,makokou,0.5738,12.8642,297.89,81,100,2.01,GA,1703056752
547,alpena,45.0617,-83.4327,273.77,79,100,3.6,US,1703056752
548,tuy hoa,13.0833,109.3,296.46,93,100,8.33,VN,1703056753
549,nuuk,64.1835,-51.7216,267.49,68,100,3.6,GL,1703056754
550,santa cruz,-17.8,-63.1667,296.85,88,40,4.12,BO,1703056755
551,barah,13.7,30.3667,297.83,33,0,3.54,SD,1703056756
552,neiafu,-18.65,-173.9833,299.88,86,28,10.54,TO,1703056757
553,salur,18.5333,83.2167,298.73,43,20,1.65,IN,1703056758
554,turabah,21.2141,41.6331,292.91,13,0,2.85,SA,1703056759
555,severobaykal'sk,55.65,109.3167,252.88,86,43,0.97,RU,1703056759
556,lazaro cardenas,17.9583,-102.2,297.38,88,4,1.5,MX,1703056760
557,santo domingo de la calzada,42.4285,-2.9555,281.04,89,100,4.21,ES,1703056761
558,fabens,31.5023,-106.1586,285.08,30,14,2.85,US,1703056762
559,vilhena,-12.7406,-60.1458,295.51,74,64,0.5,BR,1703056757
560,labytnangi,66.6572,66.4183,252.07,100,100,0.38,RU,1703056764
561,farkhar,36.5729,69.8578,282.82,49,100,1.43,AF,1703056765
562,cobija,-11.0267,-68.7692,296.74,97,96,1.06,BO,1703056765
563,chokwe,-24.5333,32.9833,303.01,58,51,1.3,MZ,1703056767
564,la ronge,55.1001,-105.2842,258.29,72,75,4.12,CA,1703056768
565,whakatane,-37.9585,176.9854,295.1,89,1,0.89,NZ,1703056553
566,taroa,8.7058,171.2275,300.63,79,100,10.23,MH,1703056770
567,the pinery,39.4553,-104.7344,282.19,29,75,3.09,US,1703056770
568,tarrafal,15.2833,-23.7667,296.59,71,100,9.42,CV,1703056771
569,las vegas,36.175,-115.1372,287.32,34,0,4.47,US,1703056434
570,ujae,8.9322,165.7642,300.69,77,100,9.67,MH,1703056773
571,sievi,63.9,24.5,270.04,95,100,3.88,FI,1703056774
572,santanyi,39.3546,3.1291,284.05,71,97,3.97,ES,1703056774
573,honefoss,60.168,10.2565,269.99,97,100,1.71,NO,1703056775
574,port blair,11.6667,92.75,303.17,70,20,5.14,IN,1703056776
575,batticaloa,7.7102,81.6924,301.23,79,98,4.69,LK,1703056777
576,linden,6.0,-58.3,296.22,99,57,0.23,GY,1703056778
577,chistyye bory,58.3647,41.6278,273.24,85,100,6.55,RU,1703056779
578,grand falls-windsor,48.9332,-55.6649,286.21,93,100,3.58,CA,1703056780
579,nantucket,41.2835,-70.0995,276.21,75,0,5.14,US,1703056780
580,bucerias,20.75,-105.3333,297.03,81,80,1.12,MX,1703056652
581,angaur state,6.906,134.13,301.51,77,30,6.03,PW,1703056782
582,wladyslawowo,54.7909,18.4009,277.0,86,100,6.46,PL,1703056783
583,eastlake,41.6539,-81.4504,271.57,78,0,4.63,US,1703056784
584,valle de la pascua,9.2155,-66.0073,295.75,91,9,2.62,VE,1703056784
585,pierre,44.3683,-100.351,267.66,93,0,0.0,US,1703056695
586,moyynkum,44.2914,72.9469,271.84,89,100,6.47,KZ,1703056786
587,banda aceh,5.5577,95.3222,303.15,67,100,3.6,ID,1703056787
588,pitimbu,-7.4706,-34.8086,298.48,84,82,4.44,BR,1703056788
589,wad az zaki,14.4619,32.2065,300.61,28,0,4.53,SD,1703056789
590,la sarre,48.8002,-79.1996,268.5,91,100,5.48,CA,1703056789
591,sola,-13.8833,167.55,300.7,76,33,3.52,VU,1703056790
592,roma,43.2128,-75.4557,269.66,91,75,0.0,US,1703056791
593,haiku-pauwela,20.9219,-156.3051,294.4,87,40,5.14,US,1703056792
594,ataq,14.5377,46.8319,294.37,35,1,0.28,YE,1703056793
595,vredendal,-31.6683,18.5012,293.25,62,4,2.04,ZA,1703056794
596,aral,40.5156,81.2636,272.89,33,74,1.36,CN,1703056795
597,amahai,-3.3333,128.9167,302.01,78,100,1.02,ID,1703056795
598,eyl,7.9803,49.8164,302.09,61,94,9.92,SO,1703056796
599,cooma,-36.2333,149.1333,283.35,88,100,2.3,AU,1703056797
600,berdigestyakh,62.0989,126.6992,247.27,98,100,1.97,RU,1703056798
601,baruun-urt,46.6806,113.2792,247.29,87,71,3.63,MN,1703056799
602,beira,-19.8436,34.8389,304.2,62,75,5.14,MZ,1703056800
603,ilhabela,-23.7781,-45.3581,295.67,88,49,1.24,BR,1703056801
